{
  "Maxwell Food Centre": [
    {
      "name": "Maxwell Food Centre guide",
      "unit": null,
      "openingHours": null
    },
    {
      "name": "Old Nyonya",
      "unit": "#01-04",
      "openingHours": "Thurs-Tue 11am to 8:30pm\nTel: 8860 6074\nWebsite\nOld Nyonya is not a halal-certified eatery"
    },
    {
      "name": "Sisaket Thai Food",
      "unit": "#01-85",
      "openingHours": "Daily 10am to 8:30pm\nSisaket Thai Food is not a halal-certified eatery"
    },
    {
      "name": "Zhen Zhen Porridge",
      "unit": "#01-54",
      "openingHours": "Wed, Fri-Mon 5:30am to 2pm\nZhen Zhen Porridge is not a halal-certified eatery"
    },
    {
      "name": "Yi Jia Teochew Fish Porridge Fish Soup",
      "unit": "#01-66",
      "openingHours": "Mon-Sat 10:30am to 2:30pm\nYi Jia Teochew Fish Porridge Fish Soup is not a halal-certified eatery"
    },
    {
      "name": "Fish Village",
      "unit": "#01-32",
      "openingHours": "Mon 11am to 8pm\nFish Village is not a halal-certified eatery"
    },
    {
      "name": "Tian Tian Hainanese Chicken Rice",
      "unit": "#01-10",
      "openingHours": "Tue-Sun 10am to 8pm\nTel: 9691 4852\nWebsite\nTian Tian Chicken Rice is not a halal-certified eatery"
    },
    {
      "name": "Maxwell Fuzhou Oyster Cake",
      "unit": "#01-05",
      "openingHours": "Mon-Sat 9am to 8pm\nTel: 9344 1296\nWebsite\nMaxwell Fuzhou Oyster Cake is not a halal-certified eatery"
    },
    {
      "name": "Taste Fusion Hainanese Chicken Chop",
      "unit": "#01-24",
      "openingHours": "Mon-Fri 12pm to 9pm, Sat 12pm to 8:30pm\nWebsite\nTaste Fusion Hainanese Chicken Chop is not a halal-certified eatery"
    },
    {
      "name": "75 China Street Peanuts Soup",
      "unit": "#01-57",
      "openingHours": "Mon-Sat 7:30am to 2pm\n75 China Street Peanuts Soup is not a halal-certified eatery"
    },
    {
      "name": "Taste Of Jiang Nan",
      "unit": "#01-62",
      "openingHours": "Sun-Fri 11:30am to 8:30pm\nTel: 8342 9898\nWebsite\nTaste of Jiang Nan is not a halal-certified eatery"
    },
    {
      "name": "Hello Banh Mi",
      "unit": "#01-98",
      "openingHours": "Mon-Fri 10am to 9pm, Sat-Sun 7am to 9pm\nHello Banh Mi is not a halal-certified eatery"
    },
    {
      "name": "Tong Xin Ju Special Shanghai Tim Sum",
      "unit": "#01-92",
      "openingHours": "Tue, Thurs-Sun 11:30am to 8:30pm\nTel: 9662 3501\nWebsite\nTong Xin Ju Special Shanghai Tim Sum is not a halal-certified eatery"
    },
    {
      "name": "China Street Hum Jin Pang",
      "unit": "#01-28",
      "openingHours": "Tue-Wed, Fri-Sun 4:30pm to 8pm\nChina Street Hum Jin Pang is not a halal-certified eatery"
    },
    {
      "name": "Fu Shun Jin Ji Shao La Mian Jia",
      "unit": "#01-71",
      "openingHours": "Mon-Fri 11:30am to 5pm, Sat 11:30am to 8pm\nFu Shun Jin Ji Shao La Mian Jia is not a halal-certified eatery"
    },
    {
      "name": "Hup Kee Wu Xiang Guan Chang",
      "unit": "#01-97",
      "openingHours": "Thurs-Tue 12pm to 6pm\nTel: 8113 7015\nWebsite\nHup Kee Wu Xiang Guan Chang is not a halal-certified eatery"
    },
    {
      "name": "Jin Hua Fish Head Bee Hoon",
      "unit": "#01-77",
      "openingHours": "Fri-Wed 11:30am to 7:30pm\nJin Hua Fish Head Bee Hoon is not a halal-certified eatery"
    },
    {
      "name": "Heng Heng Ondeh-Ondeh & Tapioca Cake",
      "unit": "#01-31",
      "openingHours": "Mon-Sat 7am to 1pm\nTel: 9730 2833\nWebsite\nHeng Heng Ondeh-Ondeh & Tapioca Cake is not a halal-certified eatery"
    },
    {
      "name": "Ye Lai Xiang Tasty Barbecue",
      "unit": "#01-94",
      "openingHours": "Mon-Fri 12pm to 2:30pm,  6pm to 8:30pm\nWebsite\nYe Lai Xiang Tasty Barbecue is not a halal-certified eatery"
    },
    {
      "name": "Danlao",
      "unit": "#01-73",
      "openingHours": "Daily 11am to 8:30pm\nTel: 8830 8355\nWebsite\nDanlao is not a halal-certified eatery"
    },
    {
      "name": "Ah Tai Hainanese Chicken Rice",
      "unit": "#01-07",
      "openingHours": "Wed-Mon 11am to 7:30pm\nWebsite\nAh Tai Hainanese Chicken Rice is not a halal-certified eatery"
    },
    {
      "name": "Fu Ji Fuzhou Fish Ball Wanton Noodles",
      "unit": "#01-06",
      "openingHours": "Sun-Fri 11:30am to 9pm\nTel: 9388 5723\nFu Ji Fuzhou Fish Ball Wanton Noodles is not a halal-certified eatery"
    },
    {
      "name": "Pakistani Dum Biryani",
      "unit": "#01-69",
      "openingHours": null
    },
    {
      "name": "The 1950s Coffee",
      "unit": "#01-90",
      "openingHours": "Tue-Sun 8:30am to 4pm\nThe 1950s Coffee is not a halal-certified eatery"
    },
    {
      "name": "Nyonya Chendol",
      "unit": "#01-02",
      "openingHours": "Daily 10am to 9pm\nWebsite\nNyonya Chendol is not a halal-certified eatery"
    },
    {
      "name": "Mr Appam",
      "unit": "#01-99",
      "openingHours": "Wed-Mon 9am to 8pm\nMr Appam is not a halal-certified eatery but uses no pork or lard"
    },
    {
      "name": "Hock Lai Seng Teochew Fishball Bak Chor Mee",
      "unit": "#01-26",
      "openingHours": "Mon-Sat 7am to 3pm\nHock Lai Seng Teochew Fishball Bak Chor Mee is not a halal-certified eatery"
    },
    {
      "name": "Lakeview (Upper Thomson) Kim Goreng Pisang",
      "unit": "#01-30",
      "openingHours": null
    },
    {
      "name": "Somerset Delicacies",
      "unit": "#01-60",
      "openingHours": "Sun-Fri 11am to 9pm\nSomerset Delicacies is not a halal-certified eatery"
    },
    {
      "name": "Sichuan Cuisine",
      "unit": "#01-87",
      "openingHours": "Sun-Fri 11am to 9pm\nTel: 9388 1558\nSichuan Cuisine is not a halal-certified eatery"
    },
    {
      "name": "Welcome Ren Min",
      "unit": "#01-33",
      "openingHours": "Mon-Thurs 5:30pm to 10:30pm, Fri 12pm to 11pm, Sat 12pm to 10:30pm, Sun 12 to 9:30pm\nWelcome Ren Min is not a halal-certified eatery"
    },
    {
      "name": "What to eat at Maxwell Food Centre",
      "unit": null,
      "openingHours": null
    }
  ],
  "Tiong Bahru Market": [
    {
      "name": "Tiong Bahru Market food guide",
      "unit": "Stall11",
      "openingHours": null
    },
    {
      "name": "Tiong Bahru Fried Kway Teow",
      "unit": "#02-11",
      "openingHours": null
    },
    {
      "name": "Jian Bo Shui Kueh",
      "unit": "#02-05",
      "openingHours": "Daily 7am to 8pm\nTel: 6753 7588\nJian Bo Shui Kueh is not a halal-certified eatery"
    },
    {
      "name": "Lor Mee 178",
      "unit": "#02-23",
      "openingHours": "Thurs-Tue 7am to 1:45pm\nLor Mee 178 is not a halal-certified eatery"
    },
    {
      "name": "Hui Ji Fishball",
      "unit": "#02-44",
      "openingHours": null
    },
    {
      "name": "Min Nan Pork Ribs Prawn Noodle",
      "unit": "#02-31",
      "openingHours": "Tue-Sun 8am to 2:30pm\nMin Nan Pork Ribs Prawn Noodle is not a halal-certified eatery"
    },
    {
      "name": "Zhong Yu Yuan Wei Wanton Noodle",
      "unit": "#02-30",
      "openingHours": null
    },
    {
      "name": "Teck Seng Soya Bean Milk",
      "unit": "#02-69",
      "openingHours": null
    },
    {
      "name": "Hong Heng Fried Sotong Prawn Mee",
      "unit": "#02-01",
      "openingHours": "Tue-Sat 10:30am to 2:30pm\nHong Heng Fried Sotong Prawn Mee is not a halal-certified eatery"
    },
    {
      "name": "Koh Brothers Pig’s Organ Soup",
      "unit": "#02-29",
      "openingHours": "Tue-Sun 9:30am to 2:30pm, 5pm to 7:30pm\nKoh Brothers Pig’s Organ Soup is not a halal-certified eatery"
    },
    {
      "name": "238 Coffee Stall",
      "unit": "#02-81",
      "openingHours": "Tue-Sun 6am to 2:30pm\n238 Coffee Stall is not a halal-certified eatery"
    },
    {
      "name": "Loo’s Hainanese Curry Rice",
      "unit": "#02-67",
      "openingHours": null
    },
    {
      "name": "Joo Chiat Beef King",
      "unit": "#02-35",
      "openingHours": null
    },
    {
      "name": "Tiong Bahru Hainanese Boneless Chicken Rice",
      "unit": "#02-82",
      "openingHours": null
    },
    {
      "name": "Grandpa Homemade Cheung Fun",
      "unit": "#02-32",
      "openingHours": "Wed, Fri-Sat 6:30am to 2:30pm, Thurs & Sun 6:30am to 2pm, Mon-Tue 7am to 2pm\nTel: 9092 9382\nWebsite\nGrandpa Homemade Cheung Fun is not a halal-certified eatery"
    },
    {
      "name": "Super Shiok Nasi Lemak",
      "unit": "#02-38",
      "openingHours": "Tue-Sun 7am to 1pm\nTel: 9105 9844\nSuper Shiok Nasi Lemak is a halal-certified eatery"
    },
    {
      "name": "Best Tiong Bahru Market food stalls",
      "unit": null,
      "openingHours": null
    }
  ],
  "Old Airport Road Food Centre": [
    {
      "name": "Best Old Airport Road Food Centre stalls",
      "unit": null,
      "openingHours": null
    },
    {
      "name": "Nam Sing Hokkien Mee",
      "unit": "#01-32",
      "openingHours": "Tue-Sun 10am to 6pm\nNam Sing is not a halal-certified eatery"
    },
    {
      "name": "Western Barbecue",
      "unit": "#01-53",
      "openingHours": "Daily 11am to 11pm\nWestern Barbecue is not a halal-certified eatery"
    },
    {
      "name": "Toa Payoh Rojak",
      "unit": "#01-108",
      "openingHours": "Mon-Sat 12pm to 7pm\nTel: 6958 9380\nToa Payoh Rojak is not a halal-certified eatery"
    },
    {
      "name": "New Eastern Kim Tee Xin Dong Fang",
      "unit": "#01-112",
      "openingHours": "Thurs-Sun 7am to 6pm\nNew Eastern Kim Tee is not a halal-certified eatery"
    },
    {
      "name": "Xin Mei Xiang Lor Mee",
      "unit": "#01-116",
      "openingHours": "Daily 7am to 4pm\nXin Mei Xiang Lor Mee is not a halal-certified eatery"
    },
    {
      "name": "Wang Wang Curry Puff",
      "unit": "#01-126",
      "openingHours": "5pm to 7pm"
    },
    {
      "name": "Dong Ji Fried Kway Teow",
      "unit": "#01-138",
      "openingHours": "Mon-Sat 11am to 8pm\nDong Ji is not a halal-certified eatery"
    },
    {
      "name": "Freshly Made Chee Cheong Fun",
      "unit": "#01-155",
      "openingHours": "Tue-Thurs 8am to 2:30pm, Fri-Sun 8:30am to 7pm\nFreshly Made Chee Cheong Fun is not a halal-certified eatery"
    },
    {
      "name": "Roast Paradise",
      "unit": "#01-121",
      "openingHours": "Tue-Sun 10:30am to 6:30pm\nTel: 9786 7396\nRoast Paradise is not a halal-certified eatery"
    },
    {
      "name": "To-Ricos Kway Chap",
      "unit": "#01-135",
      "openingHours": "Tues-Sat 10am to 2:30pm\nTel: 8923 0892\nTo-Ricos Kway Chap is not a halal-certified eatery"
    },
    {
      "name": "Nyonya Chendol",
      "unit": "#01-115",
      "openingHours": "Daily 9:30am to 9:30pm\nNyonya Chendol is not a halal-certified eatery"
    },
    {
      "name": "Xiang Ji Lor Mee",
      "unit": "#01-81",
      "openingHours": "Wed-Mon 7am to 3pm\nXiang Ji Lor Mee is not a halal-certified eatery"
    },
    {
      "name": "Hua Ji XO Fish Head Bee Hoon",
      "unit": "#01-118",
      "openingHours": "Fri-Wed 12:30pm to 9pm\nHua Ji XO Fish Head Bee Hoon is not a halal-certified eatery"
    },
    {
      "name": "Famous Old Airport Fried Oyster",
      "unit": "#01-101",
      "openingHours": "Tue-Thurs 11am to 2pm, 5:30pm to 9pm, Sat-Sun 11am to 9pm\nFamous Old Aiport Fried Oyster is not a halal-certified eatery"
    },
    {
      "name": "Qiu Rong Ban Mian",
      "unit": "#01-64",
      "openingHours": "Mon-Sat 11:30am to 8pm\nTel: 9739 8618\nQiu Rong Ban Mian is not a halal-certified eatery"
    },
    {
      "name": "J&J Special Beef Noodle",
      "unit": "#01-162",
      "openingHours": "Tue-Sun 10:30am to 4pm\nTel: 9862 7592\nJ&J Special Beef Noodle is not a halal-certified eatery"
    },
    {
      "name": "Siam Cuisine",
      "unit": "#01-65",
      "openingHours": "NA\nSiam Cuisine is a halal-certified eatery"
    },
    {
      "name": "Munchi Pancakes Signature",
      "unit": "#01-150",
      "openingHours": "Tue-Sun 8am to 5pm\nTel:8312 6203\nMunchi Pancakes Signature is a halal-certified eatery"
    },
    {
      "name": "Mama Recipe Briyani Rice",
      "unit": "#01-18",
      "openingHours": "Sun-Fri 11am to 8pm\nMama Recipe Briyani Rice is not a halal-certified eatery"
    },
    {
      "name": "Toast Hut",
      "unit": "#01-52",
      "openingHours": "Mon-Sat 6:30am to 12:30pm\nTel: 8125 7729\nToast Hut is not a halal-certified eatery"
    },
    {
      "name": "Minced Pork Bros",
      "unit": "#01-113",
      "openingHours": "Daily 9am to 5:30pm\nTel: 9786 7396\nMinced Pork Bros is not a halal-certified eatery"
    },
    {
      "name": "Tong Kee Charcoal BBQ",
      "unit": "#01-24",
      "openingHours": "Tue-Fri 4pm to 10pm, Sat-Sun 12pm to 10pm\nTel: 9669 3342\nTong Kee is not a halal-certified eatery"
    },
    {
      "name": "Whampoa Soya Bean",
      "unit": "#01-68",
      "openingHours": "Daily 8am to 8pm\nWhampoa Soya Bean is not a halal-certified eatery"
    },
    {
      "name": "Whitely Road Prawn Noodles",
      "unit": "#01-98",
      "openingHours": "Tue-Sun 9:30am to 8pm\nWhitely Road Prawn Noodles is not a halal-certified eatery"
    },
    {
      "name": "SALT",
      "unit": "#01-128",
      "openingHours": "Mon-Thurs 12pm to 2:30pm, 5pm to 8:30pm, Sat 12pm to 2:30pm, 5pm to 8:30pm\nTel: 8882 7258\nSALT is not a halal-certified eatery"
    },
    {
      "name": "Cho Kee Noodles",
      "unit": "#01-04",
      "openingHours": "Mon-Fri 11am to 3pm, 6:30pm to 9pm\nCho Kee Noodles is not a halal-certified eatery"
    },
    {
      "name": "Rong Yi Local Handmade Pau",
      "unit": "#01-01",
      "openingHours": "Daily 7:30am to 4pm\nRong Yi Local Handmade Pau is not a halal-certified eatery"
    },
    {
      "name": "Yan Ji Seafood Soup",
      "unit": "#01-152",
      "openingHours": "Tue-Sun 11:30am to 8:30pm\nYan Ji Seafood Soup is not a halal-certified eatery"
    },
    {
      "name": "Bai Nian Niang Dou Fu",
      "unit": "#01-154",
      "openingHours": null
    },
    {
      "name": "Wooga Bimbowl And Kalguksu",
      "unit": "#01-72",
      "openingHours": "Tue-Sun 11am to 2pm, 5pm to 8:30pm\nWooga Bimbowl And Kalguksu is not a halal-certified eatery"
    },
    {
      "name": "What to eat at Old Airport Road Food Centre",
      "unit": null,
      "openingHours": null
    }
  ],
  "Amoy Street Food Centre": [
    {
      "name": "Amoy Street Food Centre guide",
      "unit": null,
      "openingHours": null
    },
    {
      "name": "Big Bowls Project",
      "unit": "#02-90",
      "openingHours": "Mon-Fri 11:30am to 2pm\nWebsite\nBig Bowls Project is a halal-certified eatery"
    },
    {
      "name": "Pepper Bowl",
      "unit": "#02-102",
      "openingHours": "Mon-Fri 11am to 2:30pm\nPepper Bowl is not a halal-certified eatery"
    },
    {
      "name": "Lagoon In A Bowl",
      "unit": "#01-48",
      "openingHours": "Mon-Thurs 11am to 3pm, 6pm to 8pm, Fri 11am to 3pm\nTel: 9119 2619\nWebsite\nLagoon In A Bowl is not a halal-certified eatery"
    },
    {
      "name": "Han Kee Fish Soup",
      "unit": "#02-129",
      "openingHours": "Mon-Fri 11am to 3pm \nHan Kee Fish Soup is not a halal-certified eatery"
    },
    {
      "name": "A Noodle Story",
      "unit": "#01-39",
      "openingHours": "Mon-Fri 10am to 8pm, Sat 10am to 7pm, Sun 10am to 3pm\nWebsite\nA Noodle Story is not a halal-certified eatery"
    },
    {
      "name": "Piao Ji Fish Porridge",
      "unit": "#02-100",
      "openingHours": "Mon-Wed, Fri-Sun 10:30am to 3:30pm\nPiao Ji Fish Porridge is not a halal-certified eatery"
    },
    {
      "name": "Lian Hup Heng",
      "unit": "#02-128",
      "openingHours": "Mon-Fri 10:30am to 3pm\nWebsite\nLian Hup Heng is not a halal-certified eatery"
    },
    {
      "name": "Hong Kee Beef Noodles",
      "unit": "#01-42",
      "openingHours": "Daily 9am to 2:30pm\nTel: 9776 6269\nHong Kee Beef Noodles is not a halal-certified eatery"
    },
    {
      "name": "J2 Famous Crispy Curry Puff",
      "unit": "#01-21",
      "openingHours": "Mon-Fri 8am to 3pm\nTel: 9475 8425\nJ2 Famous Crispy Curry Puff is not a halal-certified eatery"
    },
    {
      "name": "Coffee Break",
      "unit": "#02-78",
      "openingHours": "Mon-Fri 7:30am to 2:30pm\nCoffee Break is not a halal-certified eatery"
    },
    {
      "name": "Ah Seng (Hai Nam) Coffee",
      "unit": "#02-95",
      "openingHours": "Sat-Mon 5:30am to 3pm, Tue 6am to 3pm, Wed 5:30am to 3pm\nTel: 9710 2907\nAh Seng (Hai Nam) Coffee is not a halal-certified eatery"
    },
    {
      "name": "Life Coffee",
      "unit": "#02-134",
      "openingHours": "Mon-Fri 6:30am to 4pm, Sat 8am to 3:30pm, Sun 7:30am to 3:30pm\nLife Coffee is not a halal-certified eatery"
    },
    {
      "name": "Ah Ter Teochew Fishball Noodles",
      "unit": "#01-14",
      "openingHours": "Daily 7am to 2pm\nAh Ter Teochew Fishball Noodles is not a halal-certified eatery"
    },
    {
      "name": "Amoy Street Fried Kway Teow",
      "unit": "#01-01",
      "openingHours": "Mon-Fri 7am to 2:30pm\nAmoy Street Fried Kway Teow is not a halal-certified eatery"
    },
    {
      "name": "Rayyan’s Waroeng Upnormal",
      "unit": "#02-86",
      "openingHours": "Mon-Fri 9am to 2:30pm\nTel: 9799 7373\nWebsite\nRayyan’s Waroeng Penyet is a halal-certified eatery"
    },
    {
      "name": "Mad Roaster",
      "unit": "#02-107",
      "openingHours": "Mon-Fri 8am to 3pm\nWebsite\nMad Roaster is not a halal-certified eatery"
    },
    {
      "name": "Quan Ji",
      "unit": "#01-56",
      "openingHours": "Wed-Fri 11am to 10:15pm, Sat-Sun 3:30pm to 9:30pm\nQuan Ji is not a halal-certified eatery"
    },
    {
      "name": "Terry Katong Laksa",
      "unit": "#01-28",
      "openingHours": "Mon-Fri 7:30am to 5pm, Sat 8:30am to 2pm\nTerry Katong Laksa is not a halal-certified eatery"
    },
    {
      "name": "Swan City Noodle House",
      "unit": "#02-105",
      "openingHours": "Mon-Fri 7:30am to 2:30pm, Sat 8am to 1:30pm\nTel: 8805 7584\nWebsite\nSwan City Noodle House is not a halal-certified eatery"
    },
    {
      "name": "Pho Hanoi",
      "unit": "#02-104",
      "openingHours": "Mon-Fri 11am to 4pm\nTel: 8686 1393\nWebsite\nPho Hanoi is not a halal-certified eatery"
    },
    {
      "name": "Grandma Ban Mee",
      "unit": "#01-07",
      "openingHours": "Mon-Fri 10am to 2:30pm\nWebsite\nGrandma Ban Mee is not a halal-certified eatery"
    },
    {
      "name": "Spicy Wife Nasi Lemak",
      "unit": "#02-119",
      "openingHours": "Mon-Fri 10:45am to 2pm\nWebsite\nSpicy Wife is not a halal-certified eatery but uses no pork or lard"
    },
    {
      "name": "Chun Feng Man Mian",
      "unit": "#02-114",
      "openingHours": "Mon-Fri 9:30am to 3pm\nWebsite\nChun Feng Man Mian is not a halal-certified eatery"
    },
    {
      "name": "James Quesadillas & Brunch",
      "unit": "#02-79",
      "openingHours": "Mon-Fri 7:30am to 2:30pm\nTel: 9169 9932\nWebsite\nJames Quesadillas & Brunch is not a halal-certified eatery"
    },
    {
      "name": "Good Day",
      "unit": "#01-25",
      "openingHours": "Mon-Fri 7am to 4pm\nTel: 9666 2623\nWebsite\nGood Day is not a halal-certified eatery"
    },
    {
      "name": "What to eat at Amoy Street Food Centre",
      "unit": null,
      "openingHours": null
    }
  ],
  "Adam Road Food Centre": [
    {
      "name": "Adam Road Food Centre is a hidden trove of good food",
      "unit": null,
      "openingHours": "ed in 1974, Adam Road Food Centre is one of the oldest hawker centres in Singapore"
    },
    {
      "name": "No. 1 Adam’s Nasi Lemak",
      "unit": "#01-01",
      "openingHours": "Wed-Mon 8am to 2pm"
    },
    {
      "name": "Adam’s Delight",
      "unit": "#01-11",
      "openingHours": "Daily 9:30am to 9pm"
    },
    {
      "name": "Zaiton Satay",
      "unit": "#01-07",
      "openingHours": "Daily 8am to 9pm"
    },
    {
      "name": "Adam Road Noo Cheng Big Prawn Noodles",
      "unit": "#01-27",
      "openingHours": ", Adam Road Noo Cheng Big Prawn Noodles will be there for you"
    },
    {
      "name": "Selamat Datang Warong Pak Sapari",
      "unit": "#01-09",
      "openingHours": "Mon-Tue 8am to 10pm, Thur-Sun 9am to 10pm"
    },
    {
      "name": "Pisang Melokek",
      "unit": "#01-17",
      "openingHours": "Wed-Mon 11am to 9pm"
    },
    {
      "name": "Selera Rasa Nasi Lemak",
      "unit": "#01-02",
      "openingHours": "Sat-Thur 7am to 5pm"
    },
    {
      "name": "Adam Chicken Rice",
      "unit": "#01-08",
      "openingHours": "Daily 11am to 8pm"
    },
    {
      "name": "Food worth queuing up for at Adam Road Food Centre",
      "unit": null,
      "openingHours": null
    }
  ],
  "Hong Lim Food Centre": [
    {
      "name": "Hong Lim Food Centre guide",
      "unit": null,
      "openingHours": null
    },
    {
      "name": "DDSD",
      "unit": "#02-53",
      "openingHours": "a stall named DDSD, you’ll find some unique items on the menu created by the owners themselves"
    },
    {
      "name": "Eddy’s No.1",
      "unit": "#02-13",
      "openingHours": "Mon-Fri 10:30am to 2pm\nWebsite\nEddy’s No"
    },
    {
      "name": "Tai Wah Pork Noodle",
      "unit": "#02-16",
      "openingHours": "Tue-Sun 7:30am to 3pm\nWebsite\nTai Wah Pork Noodle is not a halal-certified eatery"
    },
    {
      "name": "Generation Coffee",
      "unit": "#01-59",
      "openingHours": "Daily 7:30am to 10:30am, 11:15am to 3pm\nWebsite\nGeneration Coffee is not a halal-certified eatery"
    },
    {
      "name": "Heng Kee Curry Chicken Bee Hoon Mee",
      "unit": "#01-58",
      "openingHours": "Mon-Sat 10:30am to 3:30pm\nHeng Kee Curry Chicken Bee Hoon Mee is not a halal-certified eatery"
    },
    {
      "name": "Cantonese Delights",
      "unit": "#02-03",
      "openingHours": "Mon-Fri 9:30am to 1:30pm\nCantonese Delights is not a halal-certified eatery"
    },
    {
      "name": "Famous Sungei Road Trishaw Laksa",
      "unit": "#02-66",
      "openingHours": "Mon-Sat 9am to 3pm\nFamous Sungei Road Trishaw Laksa is not a halal-certified eatery"
    },
    {
      "name": "Ah Heng Curry Chicken Bee Hoon Mee",
      "unit": "#02-58",
      "openingHours": "till 9pm, so you can pop in for a late dinner fix if you work nearby"
    },
    {
      "name": "The Noodle Memories",
      "unit": "#02-27",
      "openingHours": "Mon-Sat 7am to 4pm\nWebsite\nThe Noodle Memories is not a halal-certified eatery"
    },
    {
      "name": "Midas Chicken Curry",
      "unit": "#02-07",
      "openingHours": "Tue-Fri 10am to 7pm, Sat-Sun 10am to 4pm\nWebsite\nMidas Chicken Curry is not a halal-certified eatery"
    },
    {
      "name": "Tang Kay Kee Fish Head Bee Hoon",
      "unit": "#01-70",
      "openingHours": "Tue-Fri 11am to 2:30pm, 5pm to 9:30pm, Sat 5pm to 9:30pm, Sun 4:30pm to 9:30pm\nWebsite\nTang Kay Kee Fish Head Bee Hoon is not a halal-certified eatery"
    },
    {
      "name": "Tuck Kee (Ipoh) Sah Hor Fun",
      "unit": "#02-40",
      "openingHours": "Tue-Sat 11am to 2:45pm\nTuck Kee (Ipoh) Sah Hor Fun is not a halal-certified eatery"
    },
    {
      "name": "Nanyang Fried Chicken",
      "unit": "#02-09",
      "openingHours": "Mon-Fri 11am to 6pm, Sat 11am to 5pm\nWebsite\nNanyang Fried Chicken is not a halal-certified eatery"
    },
    {
      "name": "153 Traditional Cuisine",
      "unit": "#01-53",
      "openingHours": "s From 5:30AM"
    },
    {
      "name": "Hokkien Street Bak Kut Teh",
      "unit": "#01-66",
      "openingHours": "Daily 8am to 7pm\nHokkien Street Bak Kut Teh is not a halal-certified eatery"
    },
    {
      "name": "Outram Park Fried Kway Teow Me",
      "unit": "#02-17",
      "openingHours": ", Outram Park Fried Kway Teow Mee fries up a plate of wok hei goodness"
    },
    {
      "name": "Ji Ji Wanton Noodle Specialist",
      "unit": "#02-48",
      "openingHours": "Fri-Wed 9:30am to 3pm, 5pm to 7pm\nWebsite\nJi Ji Wanton Noodle Specialist is not a halal-certified eatery"
    },
    {
      "name": "Fan Ji Bitter Gourd Fish Soup",
      "unit": "#02-70",
      "openingHours": "Sun-Fri 9:30am to 2pm\nFan Ji Bittergourd Fish Soup is not a halal-certfied eatery"
    },
    {
      "name": "Ah Heng Duck Rice",
      "unit": "#02-64",
      "openingHours": "Tue-Sun 6:30am to 3pm\nAh Heng Duck Rice is not a halal-certified eatery"
    },
    {
      "name": "Granny’s Pancake",
      "unit": "#02-39",
      "openingHours": "Mon-Sat 7am to 2pm\nGranny’s Pancake is not a halal-certified eatery"
    },
    {
      "name": "What to eat at Hong Lim Food Centre",
      "unit": null,
      "openingHours": null
    }
  ],
  "Newton Food Centre": [
    {
      "name": "Newton Food Centre guide",
      "unit": "Stall15",
      "openingHours": null
    },
    {
      "name": "Local specialties",
      "unit": "#01-73",
      "openingHours": "Wed-Sat 5:30pm to 12am\nHup Kee is not a halal-certified eatery"
    },
    {
      "name": "Hup Kee Fried Oyster Omelette",
      "unit": "#01-73",
      "openingHours": "Wed-Sat 5:30pm to 12am\nHup Kee is not a halal-certified eatery"
    },
    {
      "name": "Heng Carrot Cake & Oyster Omelette",
      "unit": "#01-28",
      "openingHours": "Wed-Mon 6pm to 11pm\nHeng Carrot Cake & Oyster Omelette is not a halal-certified eatery"
    },
    {
      "name": "TKR Satay",
      "unit": "#01-33",
      "openingHours": "Wed-Mon 4pm to 12:30am\nTKR Satay is not a halal-certified eatery"
    },
    {
      "name": "Kwee Heng Duck Noodle",
      "unit": "#01-13",
      "openingHours": "Mon-Tue 9am to 9pm, Thurs-Sat 9am to 9pm\n Kwee Heng is not a halal-certified eatery"
    },
    {
      "name": "Kwang Kee Teochew Fish Porridge",
      "unit": "#01-20",
      "openingHours": "Tue-Sun 11am to 8pm\nKwang Kee Teochew Fish Porridge is not a halal-certified eatery"
    },
    {
      "name": "Hajah Monah Kitchen",
      "unit": "#01-83",
      "openingHours": "Mon-Tue 6am to 3pm, Wed 7:30am to 3pm, Thurs-Sat 6am to 3pm\nHajah Monah is a Muslim-owned eatery"
    },
    {
      "name": "Indian Kitchen",
      "unit": "#01-44",
      "openingHours": "Daily 11:30am to 11:30pm\nWebsite\nIndian Kitchen is not a halal-certified eatery"
    },
    {
      "name": "Newton Old Signboard 25",
      "unit": "#01-25",
      "openingHours": "Daily 10:45am to 10:30pm\nWebsite\nNewton Old Signboard 25 is not a halal-certified eatery"
    },
    {
      "name": "R&B Express",
      "unit": "#01-76",
      "openingHours": "Daily 6pm to 3am\nWebsite\nR&B Express is not a halal-certified eatery"
    },
    {
      "name": "Seafood",
      "unit": "#01-53",
      "openingHours": "Daily 11am to 12am\nTel: 9766 3531\nGuan Kee is a halal-certified eatery"
    },
    {
      "name": "Guan Kee Grilled Seafood",
      "unit": "#01-53",
      "openingHours": "Daily 11am to 12am\nTel: 9766 3531\nGuan Kee is a halal-certified eatery"
    },
    {
      "name": "Alliance Seafood",
      "unit": "#01-27",
      "openingHours": "Tue-Sun 11:30am to 10:30pm\nAlliance Seafood is not a halal-certified eatery"
    },
    {
      "name": "31 Heng Heng BBQ",
      "unit": "#01-31",
      "openingHours": "Wed-Mon 12pm to 10:30pm\n31 Heng Heng is not a halal-certified eatery"
    },
    {
      "name": "Drinks and desserts",
      "unit": "#01-05",
      "openingHours": "Thurs-Tue 11am to 10:30pm\n88 San Ren is not a halal-certified eatery"
    },
    {
      "name": "88 San Ren Cold and Hot Dessert",
      "unit": "#01-05",
      "openingHours": "Thurs-Tue 11am to 10:30pm\n88 San Ren is not a halal-certified eatery"
    },
    {
      "name": "Syed Ishak Drinks Stall",
      "unit": "#01-52",
      "openingHours": "Mon-Thurs 10am to 2am, Fri-Sun 10am to 3am\nSyed Ishak Drinks Stall is a Muslim-owned eatery"
    },
    {
      "name": "On Tap",
      "unit": "#01-71",
      "openingHours": "Daily 5:30pm to 2am\nWebsite\nOn Tap is not a halal-certified eatery"
    },
    {
      "name": "What to eat at Newton Food Centre",
      "unit": null,
      "openingHours": null
    }
  ],
  "Chinatown Complex Food Centre": [
    {
      "name": "Chinatown Complex Food Centre guide",
      "unit": null,
      "openingHours": null
    },
    {
      "name": "Zhonghua Rougamo",
      "unit": "#02-124",
      "openingHours": "Wed-Mon 10am to 3pm, 4:30pm to 8pm\nZhonghua Rougamo is not a halal-certified eatery"
    },
    {
      "name": "Woo Ji Cooked Food",
      "unit": "#02-056",
      "openingHours": "Wed-Sun 6am to 9:15am\nWoo Ji Cooked Food is not a halal-certified eatery"
    },
    {
      "name": "Shang Hai Fried Xiao Long Bao",
      "unit": "#02-205",
      "openingHours": "Thurs-Tue 10:30am to 3:30pm, 5:30pm to 8:30pm\nShang Hai Fried Xiao Long Bao is not a halal-certified eatery"
    },
    {
      "name": "Xiu Ji Ikan Bilis Yong Tau Foo",
      "unit": "#02-88",
      "openingHours": "Tue-Sun 5am to 1:30pm\nXiu Ji Ikan Bilis Yong Tau Foo is not a halal-certified eatery"
    },
    {
      "name": "Zhong Guo La Mian Xiao Long Bao",
      "unit": "#02-135",
      "openingHours": "Wed-Fri 11am to 8:30pm, Sat-Sun 10:30am to 8:30pm\nZhong Guo La Mian Xiao Long Bao is not a halal-certified eatery"
    },
    {
      "name": "Jin Ji Braised Duck",
      "unit": "#02-156",
      "openingHours": "Tue-Thurs, Sat-Sun 10am to 6pm\nTel: 9018 9052\nWebsite\nJin Ji Braised Duck is not a halal-certified eatery"
    },
    {
      "name": "Aziz Jaffar Muslim Food",
      "unit": "#02-70",
      "openingHours": "Tue-Fri 8am to 2pm, Sat-Sun 7am to 12pm\nTel: 8608 1206\nWebsite\nAziz Jaffar Muslim Food is a halal-certified eatery"
    },
    {
      "name": "Chef Leung’s Authentic Hand-Milled Rice Noodle Rolls",
      "unit": "#02-096",
      "openingHours": "Thurs-Sun 6:30am to 12pm\nWebsite\nChef Leung’s Authentic Hand-milled Rice Noodle Rolls is not a halal-certified eatery"
    },
    {
      "name": "Ye Ji Cooked Food",
      "unit": "#02-020",
      "openingHours": "Mon-Fri 8am to 2:30pm\nYe Ji Cooked Food is not a halal-certified eatery"
    },
    {
      "name": "Lian He Ben Ji Claypot Rice",
      "unit": "#02-198",
      "openingHours": "Tues-Wed, Fri-Sun 3pm to 9pm\nTel: 6227 2470\nLian He Ben Ji is not a halal-certified eatery"
    },
    {
      "name": "Chang Ji Gourmet",
      "unit": "#02-110",
      "openingHours": "Wed-Sun 6:30am to 2pm\nChang Ji Gourmet is not a halal-certified eatery"
    },
    {
      "name": "Pan Ji Cooked Food",
      "unit": "#02-78",
      "openingHours": "Daily 8am to 2pm\nPan Ji Cooked Food is not a halal-certified eatery"
    },
    {
      "name": "Hong Kong Mong Kok Tim Sum",
      "unit": "#02-097",
      "openingHours": "Wed-Sun 11am to 5pm\nTel: 9735 6312\nHong Kong Mong Kok Tim Sum is not a halal-certified eatery"
    },
    {
      "name": "Old Amoy Chendol",
      "unit": "#02-008",
      "openingHours": "Daily 10:30am to 6pm\nTel: 8748 7590\nWebsite\nOld Amoy Chendol is not a halal-certified eatery but serves no pork or lard"
    },
    {
      "name": "Monan Pork Soup",
      "unit": "#02-137",
      "openingHours": "Mon-Sat 11am to 8pm\nWebsite\nMonan Pork Soup is not a halal-certified eatery"
    },
    {
      "name": "Ah Kong Wah Kuih",
      "unit": "#02-116",
      "openingHours": "Tue-Sun 7:45am to 2pm\nWebsite\nAh Kong Wah Kuih is not a halal-certified eatery"
    },
    {
      "name": "Ann Chin Popiah",
      "unit": "#02-112",
      "openingHours": "Daily 8am to 7pm\nWebsite\nAnn Chin Popiah is not a halal-certified eatery"
    },
    {
      "name": "Smith Street Taps",
      "unit": "#02–62",
      "openingHours": "Mon-Thurs 6pm to 10:30pm, Fri 6pm to 11pm, Sat 2pm to 11pm\nWebsite\nSmith Street Taps is not a halal-certified eatery"
    },
    {
      "name": "Oh! My Bento",
      "unit": "#02-118",
      "openingHours": "Daily 11am to 8:30pm\nWebsite\nOh! My Bento is not a halal-certified eatery"
    },
    {
      "name": "What to eat at Chinatown Complex Food Centre",
      "unit": null,
      "openingHours": null
    }
  ],
  "Ghim Moh Market Food Centre": [
    {
      "name": "Ghim Moh Food Centre stalls to start your day right",
      "unit": null,
      "openingHours": null
    },
    {
      "name": "Hin Fried Hor Fun With Prawn Beef Sliced Fish",
      "unit": "#01-56",
      "openingHours": "Tue-Sun 10am to 3pm, 5pm to 8pm"
    },
    {
      "name": "Xiang Ji Roasted Delight",
      "unit": "#01-60",
      "openingHours": "Daily 8am to 4pm\nTel: 9792 4946"
    },
    {
      "name": "Teck Hin Delicacies",
      "unit": "#01-30",
      "openingHours": "Tue-Thur, Sat-Sun 5:45am to 12pm"
    },
    {
      "name": "Kong Shang Hua Wanton Noodles",
      "unit": "#01-05",
      "openingHours": "Sat-Wed 6am to 1:30pm"
    },
    {
      "name": "Hai Nan Hometown Curry",
      "unit": "#01-49",
      "openingHours": "Tue-Sun 9am to 8pm"
    },
    {
      "name": "I Love Burger Lah!",
      "unit": "#01-06",
      "openingHours": "Daily 11am to 8pm"
    },
    {
      "name": "Hock Soon Carrot Cake",
      "unit": "#01-29",
      "openingHours": "Tue-Sun 9am to 12pm"
    },
    {
      "name": "Wei Xiang Hokkien Prawn Mee",
      "unit": "#01-50",
      "openingHours": "Daily 5am to 1pm"
    },
    {
      "name": "Lucky Poh Hong Kong Noodle & Rice",
      "unit": "#01-22",
      "openingHours": "Tue-Sun 7am to 2pm"
    },
    {
      "name": "Ghim Moh Chwee Kueh",
      "unit": "#01-54",
      "openingHours": "Daily 6:15am to 7:30pm"
    },
    {
      "name": "Ghim Moh Food Centre keeps the hunger away",
      "unit": null,
      "openingHours": null
    }
  ],
  "Holland Village Food Centre": [
    {
      "name": "Holland Village Food Centre food guide",
      "unit": null,
      "openingHours": "ed after three months of renovation works, and to tag on to that piece of good news is another: a second level of new stalls that are slated to open in the near future! Pop into the refurbished food centre, and you’ll find the same familiar level of stalls, and half a level down, towards the back, another spread of soon-to-open hawker stalls"
    },
    {
      "name": "Ming Fa Fishball Noodles",
      "unit": "#01-14",
      "openingHours": "Daily 8am to 8pm \nWebsite\nMing Fa Fishball Noodles is not a halal-certified eatery"
    },
    {
      "name": "363 Katong Laksa Holland Village Nasi Lemak",
      "unit": "#01-15",
      "openingHours": "Daily 11am to 9pm\nTel: 6464 9303\n363 Holland Village Nasi Lemak is not a halal-certified eatery, but uses no pork or lard"
    },
    {
      "name": "Xiang Ji Hainanese Chicken Rice, Porridge and Noodles",
      "unit": "#01-22",
      "openingHours": "Daily 7am to 7pm \nXiang Ji Hainanese Chicken Rice, Porridge and Noodles is not a halal-certified eatery"
    },
    {
      "name": "Chang Sheng Western Food",
      "unit": "#01-30",
      "openingHours": "Tue-Sun 11am to 9:30pm\nTel: 8550 3536\nChang Sheng Western Food is not a halal-certified eatery"
    },
    {
      "name": "De Sheng Hand-Made Noodles and Fish Soup",
      "unit": "#01-19",
      "openingHours": "Daily 9am to 9pm\nDe Sheng Hand-Made Noodles and Fish Soup is not a halal-certified eatery"
    },
    {
      "name": "Qian Jiao Bai Wei Ma La Xiang Guo",
      "unit": "#01-31",
      "openingHours": "Daily 11:30am to 11pm\nQian Jiao Bai Wei Ma La Xiang Guo is not a halal-certified eatery"
    },
    {
      "name": "Yu Ji Claypot and Stewed Soup",
      "unit": "#01-29",
      "openingHours": "Daily 9am to 9pm\nYu Ji Claypot and Stewed Soup is not a halal-certified eatery"
    },
    {
      "name": "Liang Ji Wanton Noodle",
      "unit": "#01-18",
      "openingHours": "Daily 8am to 9:30pm\nChen Ji Wanton Noodle is not a halal-certified eatery"
    },
    {
      "name": "Holland V Fried Bee Hoon",
      "unit": "#01-11",
      "openingHours": "from 6am in the mornings and is typically sold out before lunch even starts"
    },
    {
      "name": "Hui Wei Japanese Korean Cuisine",
      "unit": "#01-16",
      "openingHours": null
    },
    {
      "name": "What to eat at Holland Village Food Centre",
      "unit": null,
      "openingHours": null
    }
  ],
  "Pek Kio Market Food Centre": [
    {
      "name": "Pek Kio Food Centre guide",
      "unit": null,
      "openingHours": null
    },
    {
      "name": "Lai Hiang Pork Rib Prawn Noodles",
      "unit": "#01-41",
      "openingHours": "Sat-Tue 6am to 1:30pm\nWebsite\nLai Hiang Pork Rib Prawn Mee is not a halal-certified eatery"
    },
    {
      "name": "Sin Kee Nasi Lemak",
      "unit": "#01-34",
      "openingHours": "Daily 5am to 2pm\nSin Kee is not a halal-certified eatery"
    },
    {
      "name": "Cambridge Road Yong Tau Foo",
      "unit": "#01-47",
      "openingHours": "Tue-Sun 7am to 2pm\nCambridge Road Yong Tau Fu is not a halal-certified eatery"
    },
    {
      "name": "Soon Kee Wanton Mee",
      "unit": "#01-44",
      "openingHours": "Thur-Sun 5am to 1:30pm\nWebsite\nSoon Kee is not a halal-certified eatery"
    },
    {
      "name": "Pin Wei Hong Kong Styled Chee Cheong Fun",
      "unit": "#01-25",
      "openingHours": "Tue-Sun 6:30am to 2pm\nTel: 8180 2014\nPin Wei is not a halal-certified eatery"
    },
    {
      "name": "Sheng Seng Fried Hokkien Mee",
      "unit": "#01-40",
      "openingHours": "Tue-Sun 10am to 3pm\nSheng Seng Fried Hokkien Mee is not a halal-certified eatery"
    },
    {
      "name": "Double Spring Teochew Lor Duck Kway Chap",
      "unit": "#01-38",
      "openingHours": "Tue-Wed, Fri-Sun 8am to 3pm\nDouble Spring is not a halal-certified eatery"
    },
    {
      "name": "Min Hiang",
      "unit": "#01-21",
      "openingHours": "Tue-Sun 8am to 3:30pm\nMin Hiang is not a halal-certified eatery"
    },
    {
      "name": "Wah Kee Big Prawn Noodles",
      "unit": "#01-15",
      "openingHours": "Wed-Sun 9am to 2pm\nWah Kee Big Prawn is not a halal-certified eatery"
    },
    {
      "name": "Yean Heng Pancake",
      "unit": "#01-32",
      "openingHours": "Tue-Wed, Fri-Sun 8am to 4pm\nYean Heng is not a halal-certified eatery"
    },
    {
      "name": "Tong Siew Fried Rice",
      "unit": "#01-23",
      "openingHours": "Fri-Wed 12:30pm to 11pm\nTong Siew is not a halal-certified eatery"
    },
    {
      "name": "Xin Heng Kee Chicken & Duck Rice",
      "unit": "#01-14",
      "openingHours": "Thurs-Tue 7am to 2pm\nXin Heng Kee Chicken & Duck Rice is not a halal-certified eatery"
    },
    {
      "name": "Johan Muslim Food",
      "unit": "#01-09",
      "openingHours": "till 12pm, which makes them a great breakfast spot"
    },
    {
      "name": "Delicacy Fish Soup",
      "unit": "#01-03",
      "openingHours": "Sun-Thurs 11am to 8pm\nDelicacy Fish Soup is not a halal-certified eatery"
    },
    {
      "name": "Good Spice Carrot Cake",
      "unit": "#01-20",
      "openingHours": "Thurs-Tue 6am to 1pm\nGood Spice Carrot Cake is not a halal-certified eatery"
    },
    {
      "name": "What to eat at Pek Kio Food Centre",
      "unit": null,
      "openingHours": null
    }
  ],
  "Seah Im Food Centre": [
    {
      "name": "Seah Im Food Centre guide",
      "unit": "Stall3",
      "openingHours": null
    },
    {
      "name": "Aspirasi",
      "unit": "#01-45",
      "openingHours": "Mon-Sat 9am to 7pm\nTel: 6278 8780\nWebsite\nAspirasi is a Muslim-owned eatery"
    },
    {
      "name": "Shi Ji Noodle Stall",
      "unit": "#01-56",
      "openingHours": "Wed-Mon 7:30am to 2:15pm \nShi Ji Noodle Stall is not a halal-certified eatery"
    },
    {
      "name": "Thaksin Beef Noodle",
      "unit": "#01-44",
      "openingHours": "Daily 10am to 10pm\nTel: 9666 1234\nWebsite\nThaksin Beef Noodle is not a halal-certified eatery"
    },
    {
      "name": "Farasha Muslim Food",
      "unit": "#01-31",
      "openingHours": "Mon-Sat 10am to 8pm\nFarasha Muslim Food is a Muslim-owned eatery"
    },
    {
      "name": "Cheng Ji Chao Xia Mian Hao Jian",
      "unit": "#01-59",
      "openingHours": "Mon-Sat 10am to 8pm\nCheng Ji is not a halal-certified eatery"
    },
    {
      "name": "Cai Ji Boneless Duck",
      "unit": "#01-58",
      "openingHours": "Sun-Fri 11am to 7pm\nCai Ji is not a halal-certified eatery"
    },
    {
      "name": "MakanBoleh",
      "unit": "#01-36",
      "openingHours": "Mon-Sat 6am to 9pm\nMakanBoleh is a Muslim-owned eatery"
    },
    {
      "name": "Seah Im Fried Kway Teow & Carrot Cake",
      "unit": "#01-26",
      "openingHours": "Daily 6am to 4pm\nFried Kuay Teaw Mee is not a halal-certified eatery"
    },
    {
      "name": "Mohamed Arafat Muslim Food",
      "unit": "#01-48",
      "openingHours": "Daily 7am to 10pm\nMohamed Arafat Muslim Food is a Muslim-owned eatery"
    },
    {
      "name": "Kheng Nam Lee Curry Rice",
      "unit": "#01-53",
      "openingHours": "Mon-Sat 9am to 3pm\nWebsite\nKheng Nam Lee is not a halal-certified eatery"
    },
    {
      "name": "Daliman’s Korner",
      "unit": "#01-32",
      "openingHours": "Mon-Tue, Thurs 9am to 8:30pm, Wed, Fri-Sun 10am to 8:30pm\nDaliman’s Korner is a Muslim-owned eatery"
    },
    {
      "name": "What to eat at Seah Im Food Centre",
      "unit": null,
      "openingHours": null
    }
  ],
  "Sembawang Hills Food Centre": [
    {
      "name": "Delicious grub at Sembawang Hills Food Centre",
      "unit": null,
      "openingHours": null
    },
    {
      "name": "Grill and Pasta",
      "unit": "#01-34",
      "openingHours": "Tue-Sun 12pm to 2pm, 5:30pm to 8:30pm"
    },
    {
      "name": "Doe",
      "unit": "#01-22",
      "openingHours": "Thur-Sun 7am to 3pm\nTel: 9382 7176\nWebsite"
    },
    {
      "name": "Fresh Fish Seafood Soup",
      "unit": "#01-36",
      "openingHours": "Tue-Sun 7am to 2:30pm"
    },
    {
      "name": "Centre Satay Bee Hoon",
      "unit": "#01-22",
      "openingHours": "Daily 10am to 8:30pm"
    },
    {
      "name": "Ping Kee Popiah",
      "unit": "#01-32",
      "openingHours": "Daily 11:15am to 8pm"
    },
    {
      "name": "Lai Heng Char Kway Teow",
      "unit": "#01-15",
      "openingHours": "Daily 11am to 5pm"
    },
    {
      "name": "Jia Jia Xing Pig’s Organ Soup",
      "unit": "#01-10",
      "openingHours": "Daily 10am to 7pm"
    },
    {
      "name": "Seng Huat Duck Rice",
      "unit": "#01-07",
      "openingHours": "Tue-Sun 7am to 1pm"
    },
    {
      "name": "Teochew Minced Meat Noodle",
      "unit": "#01-29",
      "openingHours": "Sat-Thur 6am to 2:30pm"
    },
    {
      "name": "San Ba Wang Guo Zhi Shu Shi",
      "unit": "#01-06",
      "openingHours": "Daily 7am to 12pm"
    },
    {
      "name": "Food at Sembawang Hills Food Centre will not disappoint",
      "unit": null,
      "openingHours": null
    }
  ],
  "Telok Blangah Crescent Food Centre": [
    {
      "name": "Telok Blangah Crescent Food Centre guide",
      "unit": "Stall9",
      "openingHours": null
    },
    {
      "name": "Su Yuan Vegetarian",
      "unit": "#01-113",
      "openingHours": "Tue-Wed, Fri-Sat 7:30am to 2pm\nSu Yuan Vegetarian is not a halal-certified eatery"
    },
    {
      "name": "Fei Lou Porridge",
      "unit": "#01-116",
      "openingHours": "Mon-Tue, Fri 6:30pm to 9:30pm, Sat-Sun 5:45pm to 9:30pm\nFei Lou Porridge is not a halal-certified eatery"
    },
    {
      "name": "Guan Seng Carrot Cake",
      "unit": "#01-81",
      "openingHours": "Tue-Sun 5:30am to 2pm\nGuan Seng Carrot Cake is not a halal-certified eatery"
    },
    {
      "name": "Song Heng Fishball Noodle",
      "unit": "#01-124",
      "openingHours": "Tue-Wed, Fri-Sat 5am to 3pm\nSong Heng Fishball Noodle is not a halal-certified eatery"
    },
    {
      "name": "Hai Kee Char Kway Teow",
      "unit": "#01-102",
      "openingHours": "Daily 4:30pm to 9pm\nHai Kee Teochew Cha Kuay Teow is not a halal-certified eatery"
    },
    {
      "name": "Xiang Ji Porridge",
      "unit": "#01-98",
      "openingHours": "Tue-Sat 6:30am to 2pm\nXiang Ji Porridge is not a halal-certified eatery"
    },
    {
      "name": "Uncle Lee’s Hong Kong Noodle & Rice",
      "unit": "#01-127",
      "openingHours": "Fri-Tue 6:30am to 2pm\nUncle Lee’s Hong Kong Noodle & Rice is not a halal-certified eatery"
    },
    {
      "name": "Soon Huat Coffee Stall",
      "unit": "#01-06",
      "openingHours": "Tue 7:30am to 2pm, Wed to Sat 9am to 2pm\nSoon Huat Coffee Stall is not a halal-certified eatery but uses no pork or lard"
    },
    {
      "name": "Gems Harvest",
      "unit": "#01-86",
      "openingHours": "Tue-Sun 7am to 2pm\nGems Harvest is not a halal-certified eatery"
    },
    {
      "name": "Ah Boon Handmade Fishcake",
      "unit": "#01-125",
      "openingHours": "Tue-Sun 7:30am to 12pm\nWebsite\nAh Boon Handmade Fishcake is not a halal-certified eatery"
    },
    {
      "name": "Best Telok Blangah Crescent Food Centre stalls",
      "unit": null,
      "openingHours": null
    }
  ],
  "Woodleigh Village Hawker Centre": [
    {
      "name": "Woodleigh Village Hawker Centre Food Guide",
      "unit": null,
      "openingHours": null
    },
    {
      "name": "Style Palate",
      "unit": "#01-30",
      "openingHours": "Daily 10:30am to 9pm\nWebsite\nStyle Palate is not a halal-certified eatery"
    },
    {
      "name": "Ji Hui Lai Nasi Kerabu",
      "unit": "#01-07",
      "openingHours": "Tue-Sun 11:30am to 8pm\nJi Hui Lai Nasi Kerabu is not a halal-certified eatery"
    },
    {
      "name": "Pura Vida Cocina Mexican Fusion",
      "unit": "#01-25",
      "openingHours": null
    },
    {
      "name": "M+ Fried Rice Paradise",
      "unit": "#01-11",
      "openingHours": "Sun-Wed 9am to 10:30pm, Thurs-Sat 9am to 2:30pm\nM+ Fried Rice Paradise is a halal-certified eatery"
    },
    {
      "name": "Eng Kee Chicken Wings",
      "unit": "#01-18",
      "openingHours": "Tue-Fri 11am to 7:30pm, Sat-Sun 9:30am to 6pm\nWebsite\nEng Kee Chicken Wings is not a halal-certified eatery"
    },
    {
      "name": "Munchi Pancakes",
      "unit": "#01-38",
      "openingHours": "Daily 8am to 8:30pm\nWebsite\nMunchi Pancakes is a halal-certified eatery"
    },
    {
      "name": "Liu Kou Shui",
      "unit": "#01-32",
      "openingHours": null
    },
    {
      "name": "Guan Kee Kway Chap",
      "unit": "#01-19",
      "openingHours": "Daily 11am to 7:30pm\nWebsite\nGuan Kee Kway Chap is not a halal-certified eatery"
    },
    {
      "name": "Whampoa Nan Xiang Chicken Rice",
      "unit": "#01-28",
      "openingHours": "Fri-Wed 10am to 8pm\nWebsite\nWhampoa Nan Xiang Chicken Rice is not a halal-certified eatery"
    },
    {
      "name": "Ming Chung White Lor Mee",
      "unit": "#01-27",
      "openingHours": "Tue-Sun 12pm to 2:30pm, 5pm to 9pm\nWebsite\nMing Chung White Lor Mee is not a halal-certified eatery"
    },
    {
      "name": "What to eat at Woodleigh Village Hawker Centre",
      "unit": null,
      "openingHours": null
    }
  ],
  "Kampung Admiralty Hawker Centre": [
    {
      "name": "Good hawker food at Kampung Admiralty Hawker Centre",
      "unit": null,
      "openingHours": "of Kampung Admiralty in the newspaper, the first thoughts that came to my mind were, “Where even is Admiralty? What is there to do at that place?”"
    },
    {
      "name": "Ayam Penyet",
      "unit": null,
      "openingHours": null
    },
    {
      "name": "San Yi Xuan",
      "unit": "#02-24",
      "openingHours": "Daily 11am to 9pm"
    },
    {
      "name": "Mother & Daughter",
      "unit": "#02-18",
      "openingHours": "Daily 5:30am to 8:30pm"
    },
    {
      "name": "Ah Ma Mee Sua",
      "unit": null,
      "openingHours": null
    },
    {
      "name": "Souper Stew",
      "unit": null,
      "openingHours": null
    },
    {
      "name": "Jia Le Yong Tau Foo",
      "unit": null,
      "openingHours": null
    },
    {
      "name": "Saamsudeen",
      "unit": null,
      "openingHours": null
    },
    {
      "name": "Something for everyone",
      "unit": null,
      "openingHours": "Daily 5am to 11pm"
    }
  ],
  "Kovan 209 Market Food Centre": [
    {
      "name": "Food at Kovan Market & Food Centre",
      "unit": null,
      "openingHours": null
    },
    {
      "name": "Sun Kee Drinks",
      "unit": "#01-65",
      "openingHours": "Mon-Sat 6am to 3pm"
    },
    {
      "name": "Fa Ji Dessert",
      "unit": "#01-47",
      "openingHours": "Daily 7am to 9:45pm"
    },
    {
      "name": "Ah Hui Big Prawn Noodle",
      "unit": "#01-59",
      "openingHours": "Fri-Wed 8am to 5pm"
    },
    {
      "name": "Yam Mee Teochew Fishball Mee",
      "unit": "#01-35",
      "openingHours": "Tue-Sun 7am to 9pm"
    },
    {
      "name": "Bedok Cooked Food",
      "unit": "#01-32",
      "openingHours": "Tue-Sun 10am to 7pm"
    },
    {
      "name": "Fa Ji Minced Meat Fishball Noodle",
      "unit": "#01-05",
      "openingHours": "Thur-Sun 7:30am to 8pm"
    },
    {
      "name": "A1 Kway Chap",
      "unit": "#01-15",
      "openingHours": "Daily 8:30am to 9:30pm"
    },
    {
      "name": "Fatt Soon Kueh",
      "unit": "#01-17",
      "openingHours": "Mon-Sat 9am to 6pm"
    },
    {
      "name": "Xiang Rui Zhou Pin",
      "unit": "#01-28",
      "openingHours": "Daily 7:15am to 9:15pm"
    },
    {
      "name": "Chai Kee Prawn Noodle",
      "unit": "#01-66",
      "openingHours": "Daily 6:30am to 2pm"
    },
    {
      "name": "Good things must wait",
      "unit": null,
      "openingHours": null
    }
  ],
  "Bedok Interchange Hawker Centre": [
    {
      "name": "Bedok Interchange Hawker Centre food guide",
      "unit": null,
      "openingHours": null
    },
    {
      "name": "Kin Khao Yang",
      "unit": "#01-02",
      "openingHours": "Daily 10:30am to 10pm\nKin Khao Yang Authentic Thai Food is not a halal-certified eatery"
    },
    {
      "name": "Ma La Xiang Guo",
      "unit": "#01-48",
      "openingHours": "Fri-Wed 10am to 10pm, Thurs 11:30am to 10pm\nMa La Xiang Guo is not a halal-certified eatery"
    },
    {
      "name": "Ming Hui Nasi Lemak",
      "unit": "#01-34",
      "openingHours": "Mon-Sat 5am to 7:30pm, Sun 5am to 7pm\nMing Hui Nasi Lemak is not a halal-certified eatery"
    },
    {
      "name": "Hock Hai (Hong Lim) Curry Chicken Noodle",
      "unit": "#01-58",
      "openingHours": "Wed-Sun 9am to 9pm\nHock Hai (Hong Lim) Curry Chicken Noodle is not a halal-certified eatery"
    },
    {
      "name": "Xue Hua Fei Cold & Hot Drinks",
      "unit": "#01-56",
      "openingHours": "Wed-Mon 11am to 9pm\nXua Hua Fei Cold & Hot Drinks is not a halal-certified eatery"
    },
    {
      "name": "Mei Xiang Lor Mee",
      "unit": "#01-10",
      "openingHours": "Tue-Sun 7:30am to 3pm\nMei Xiang Lor Mee is not a halal-certified eatery"
    },
    {
      "name": "Jefri The Original Botak Chicken Rice",
      "unit": "#01-07",
      "openingHours": "Mon 11:30am to 12am, Tue 12am to 10pm, 11:30am to 10pm, Wed-Thurs 11:30am to 10pm\nJefri The Original Botak Chicken Rice is a Muslim-owned eatery"
    },
    {
      "name": "Pin Xiang Hainanese Chicken Rice",
      "unit": "#01-03",
      "openingHours": "Daily 9:30am to 9:30pm\nPin Xiang Hainanese Chicken Rice is not a halal-certified eatery"
    },
    {
      "name": "Inspirasi",
      "unit": "#01-64",
      "openingHours": "Mon-Sat 11:30am to 9:30pm\nInspirasi is a Muslim-owned eatery"
    },
    {
      "name": "Bedok Chwee Kueh",
      "unit": "#01-19",
      "openingHours": "Daily 7am to 7:30pm\nBedok Chwee Kueh is not a halal-certified eatery"
    },
    {
      "name": "What to eat at Bedok Interchange Hawker Centre",
      "unit": null,
      "openingHours": null
    }
  ],
  "Fernvale Hawker Centre": [
    {
      "name": "Exotic Japanese fruits now available at Don Don Donki for a limited time only",
      "unit": null,
      "openingHours": null
    },
    {
      "name": "Exotic Japanese fruits now available at Don Don Donki for a limited time only",
      "unit": null,
      "openingHours": null
    },
    {
      "name": "Feng Xiang Bak Kut Teh (#03-01)",
      "unit": "#03-25",
      "openingHours": "10am – 3pm"
    },
    {
      "name": "Tong Fong Fatt Hainanese Boneless Chicken Rice (#03-25)",
      "unit": null,
      "openingHours": "10am – 8pm"
    },
    {
      "name": "Saudagar Penyek (#03-21)",
      "unit": "#03-27",
      "openingHours": "11am – 8pm"
    },
    {
      "name": "Song Zhou Carrot Cake (#03-27)",
      "unit": "#03-04",
      "openingHours": null
    },
    {
      "name": "Munchi Pancakes (#03-04)",
      "unit": "#03-02",
      "openingHours": "9am – 9pm"
    },
    {
      "name": "178 Yi Qi Fa Econ Beehoon & Nasi Lemak (#03-02)",
      "unit": "#03-07",
      "openingHours": "6am – 3pm"
    },
    {
      "name": "Seng Hiang Bak Chor Mee Bedok 85 (#03-07)",
      "unit": "#03-10",
      "openingHours": null
    },
    {
      "name": "Fins & Feathers (#03-10)",
      "unit": "#03-16",
      "openingHours": null
    },
    {
      "name": "Umi’s Spices (#03-16)",
      "unit": "#03-22",
      "openingHours": "8am – 7pm"
    },
    {
      "name": "JIN Kimchi Express (#03-22)",
      "unit": "#03-14",
      "openingHours": "5pm – 9pm"
    },
    {
      "name": "Hock Hai (Hong Lim) Curry Chicken Noodle\n(#03-14)",
      "unit": "#03-09",
      "openingHours": "9am – 8pm"
    },
    {
      "name": "Whitley Road Big Prawn Noodle (#03-09)",
      "unit": null,
      "openingHours": null
    },
    {
      "name": "Fernvale Community Club / Hawker Centre & Market",
      "unit": null,
      "openingHours": null
    },
    {
      "name": "Playlist",
      "unit": null,
      "openingHours": null
    },
    {
      "name": "Newest",
      "unit": null,
      "openingHours": null
    },
    {
      "name": "Jjjajangmyeon Showdown: O.BBa Jjajang vs Shin Jjajang Budae Jjigae",
      "unit": null,
      "openingHours": null
    },
    {
      "name": "Award-winning Thai street food brand Mr. Tuk Tuk to open 1st Johor Bahru outlet",
      "unit": null,
      "openingHours": null
    },
    {
      "name": "We tried Singapore’s best-rated Hainanese curry rice",
      "unit": null,
      "openingHours": null
    },
    {
      "name": "More To Read",
      "unit": null,
      "openingHours": null
    },
    {
      "name": "Jjjajangmyeon Showdown: O.BBa Jjajang vs Shin Jjajang Budae Jjigae",
      "unit": null,
      "openingHours": null
    },
    {
      "name": "Award-winning Thai street food brand Mr. Tuk Tuk to open 1st Johor Bahru outlet",
      "unit": null,
      "openingHours": null
    },
    {
      "name": "We tried Singapore’s best-rated Hainanese curry rice",
      "unit": null,
      "openingHours": null
    },
    {
      "name": "10 best makan spots at Lot 10 Hutong Food Court, Bukit Bintang",
      "unit": null,
      "openingHours": null
    },
    {
      "name": "Top 300 Hawkers",
      "unit": null,
      "openingHours": null
    },
    {
      "name": "More To See",
      "unit": null,
      "openingHours": null
    },
    {
      "name": "Company",
      "unit": null,
      "openingHours": null
    },
    {
      "name": "Resources",
      "unit": null,
      "openingHours": null
    }
  ],
  "Our Tampines Hub Hawker": [
    {
      "name": "8 Unexpected Food Places In Singapore You Can Get Food Delivery From",
      "unit": null,
      "openingHours": null
    },
    {
      "name": "11 best Korean BBQ restaurants in JB [Apr 2025 update]",
      "unit": null,
      "openingHours": null
    },
    {
      "name": "8 Unexpected Food Places In Singapore You Can Get Food Delivery From",
      "unit": null,
      "openingHours": null
    },
    {
      "name": "11 best Korean BBQ restaurants in JB [Apr 2025 update]",
      "unit": null,
      "openingHours": null
    },
    {
      "name": "Yong Seng Heng Prawn Noodle (#01-43)",
      "unit": "#01-65",
      "openingHours": "from 7am to 10pm"
    },
    {
      "name": "Botak Cantonese Porridge (#01-65)",
      "unit": "#01-59",
      "openingHours": "from 7am to 10pm"
    },
    {
      "name": "Indian Cuisine (#01-59)",
      "unit": null,
      "openingHours": "9am – 10pm"
    },
    {
      "name": "Jue Shi Lor Mee (#01-45)",
      "unit": "#01-34",
      "openingHours": "8am – 10pm"
    },
    {
      "name": "Japanese Curry House (#01-34)",
      "unit": "#01-39",
      "openingHours": null
    },
    {
      "name": "Ofanz Rojak • Popiah (#01-39)",
      "unit": "#01-44",
      "openingHours": "9am – 8pm"
    },
    {
      "name": "The Fish Soup 义德鱼汤 (#01-44)",
      "unit": "#01-58",
      "openingHours": "10am – 9pm"
    },
    {
      "name": "Warung Wak Dindang (#01-58)",
      "unit": "#01-63",
      "openingHours": null
    },
    {
      "name": "Social Bite (#01-63)",
      "unit": "#01-69",
      "openingHours": null
    },
    {
      "name": "P&J Western Food (#01-69)",
      "unit": null,
      "openingHours": null
    },
    {
      "name": "Our Tampines Hub",
      "unit": null,
      "openingHours": null
    },
    {
      "name": "Playlist",
      "unit": null,
      "openingHours": null
    },
    {
      "name": "Newest",
      "unit": null,
      "openingHours": null
    },
    {
      "name": "Jjjajangmyeon Showdown: O.BBa Jjajang vs Shin Jjajang Budae Jjigae",
      "unit": null,
      "openingHours": null
    },
    {
      "name": "Award-winning Thai street food brand Mr. Tuk Tuk to open 1st Johor Bahru outlet",
      "unit": null,
      "openingHours": null
    },
    {
      "name": "We tried Singapore’s best-rated Hainanese curry rice",
      "unit": null,
      "openingHours": null
    },
    {
      "name": "More To Read",
      "unit": null,
      "openingHours": null
    },
    {
      "name": "Jjjajangmyeon Showdown: O.BBa Jjajang vs Shin Jjajang Budae Jjigae",
      "unit": null,
      "openingHours": null
    },
    {
      "name": "Award-winning Thai street food brand Mr. Tuk Tuk to open 1st Johor Bahru outlet",
      "unit": null,
      "openingHours": null
    },
    {
      "name": "We tried Singapore’s best-rated Hainanese curry rice",
      "unit": null,
      "openingHours": null
    },
    {
      "name": "10 best makan spots at Lot 10 Hutong Food Court, Bukit Bintang",
      "unit": null,
      "openingHours": null
    },
    {
      "name": "Top 300 Hawkers",
      "unit": null,
      "openingHours": null
    },
    {
      "name": "More To See",
      "unit": null,
      "openingHours": null
    },
    {
      "name": "Company",
      "unit": null,
      "openingHours": null
    },
    {
      "name": "Resources",
      "unit": null,
      "openingHours": null
    }
  ],
  "Bendemeer Market Food Centre": [
    {
      "name": "Grab your co-workers for an entertaining lunch at Esplanade Mall",
      "unit": null,
      "openingHours": null
    },
    {
      "name": "Grab your co-workers for an entertaining lunch at Esplanade Mall",
      "unit": null,
      "openingHours": null
    },
    {
      "name": "Indonesia Cuisine (#01-15)",
      "unit": null,
      "openingHours": "7am – 3pm"
    },
    {
      "name": "Yit Lim Hong Kong Soy Sauce Chicken Rice & Noodle (#01-73)",
      "unit": "#01-48",
      "openingHours": "6am – 2pm"
    },
    {
      "name": "Xin Xin Yong Tau Foo (#01-48)",
      "unit": null,
      "openingHours": "8am – 8pm"
    },
    {
      "name": "Generation Coffee Roasters (#01-88)",
      "unit": null,
      "openingHours": "15 am – 3 pm"
    },
    {
      "name": "One Ton Mee (#01-09)",
      "unit": null,
      "openingHours": null
    },
    {
      "name": "Hwa Heng Beef Noodle (#01-86)",
      "unit": "#01-49",
      "openingHours": "10 am – 2:30 pm"
    },
    {
      "name": "Indonesia Curry Rice (#01-49)",
      "unit": "#01-60",
      "openingHours": "45am – 7pm"
    },
    {
      "name": "Min Hiang Soyabean (#01-60)",
      "unit": null,
      "openingHours": "6am – 2pm"
    },
    {
      "name": "Chun Man Yuan Satay (#01-78)",
      "unit": "#01-53",
      "openingHours": "4pm – 8:30pm"
    },
    {
      "name": "San Xi Hainanese Chicken Rice (#01-53)",
      "unit": "#01-85",
      "openingHours": "9am – 8 pm"
    },
    {
      "name": "Hai Sheng Carrot Cake (#01-85)",
      "unit": null,
      "openingHours": "6am – 11am"
    },
    {
      "name": "Bendemeer Market and Food Centre",
      "unit": null,
      "openingHours": null
    },
    {
      "name": "Playlist",
      "unit": null,
      "openingHours": null
    },
    {
      "name": "Newest",
      "unit": null,
      "openingHours": null
    },
    {
      "name": "Jjjajangmyeon Showdown: O.BBa Jjajang vs Shin Jjajang Budae Jjigae",
      "unit": null,
      "openingHours": null
    },
    {
      "name": "Award-winning Thai street food brand Mr. Tuk Tuk to open 1st Johor Bahru outlet",
      "unit": null,
      "openingHours": null
    },
    {
      "name": "We tried Singapore’s best-rated Hainanese curry rice",
      "unit": null,
      "openingHours": null
    },
    {
      "name": "More To Read",
      "unit": null,
      "openingHours": null
    },
    {
      "name": "Jjjajangmyeon Showdown: O.BBa Jjajang vs Shin Jjajang Budae Jjigae",
      "unit": null,
      "openingHours": null
    },
    {
      "name": "Award-winning Thai street food brand Mr. Tuk Tuk to open 1st Johor Bahru outlet",
      "unit": null,
      "openingHours": null
    },
    {
      "name": "We tried Singapore’s best-rated Hainanese curry rice",
      "unit": null,
      "openingHours": null
    },
    {
      "name": "10 best makan spots at Lot 10 Hutong Food Court, Bukit Bintang",
      "unit": null,
      "openingHours": null
    },
    {
      "name": "Top 300 Hawkers",
      "unit": null,
      "openingHours": null
    },
    {
      "name": "More To See",
      "unit": null,
      "openingHours": null
    },
    {
      "name": "Company",
      "unit": null,
      "openingHours": null
    },
    {
      "name": "Resources",
      "unit": null,
      "openingHours": null
    }
  ],
  "Circuit Road Hawker Centre": [
    {
      "name": "Fave & Be Merry With These 10 Christmas Gift Ideas",
      "unit": null,
      "openingHours": null
    },
    {
      "name": "Fave & Be Merry With These 10 Christmas Gift Ideas",
      "unit": null,
      "openingHours": null
    },
    {
      "name": "Victor Veggie (#01-92)",
      "unit": null,
      "openingHours": null
    },
    {
      "name": "Briyani By Hamidah Bi (#01-14)",
      "unit": null,
      "openingHours": null
    },
    {
      "name": "Yong Lai Fa Ji Shu Shi (#01-66)",
      "unit": "#01-25",
      "openingHours": "12pm – 8pm"
    },
    {
      "name": "DP Creations Patisserie (#01-25)",
      "unit": "#01-07",
      "openingHours": "12pm – 8pm"
    },
    {
      "name": "Soon Lee Lor Mee Stall 順利滷麵攡 (#01-07)",
      "unit": "#01-84",
      "openingHours": "12pm – 8pm"
    },
    {
      "name": "Jeun VirtueFarm 浚德田 (#01-84)",
      "unit": "#01-59",
      "openingHours": "11am – 9pm"
    },
    {
      "name": "Ho Jia Bo Fishball Minced Meat Noodle (#01-59)",
      "unit": "#01-10",
      "openingHours": "15am – 11pm"
    },
    {
      "name": "Tian Seng Fried Prawn Mee 添成炒蝦麺 (#01-10)",
      "unit": "#01-54",
      "openingHours": null
    },
    {
      "name": "Omar’s Halal Thai Beef Noodles (#01-54)",
      "unit": "#01-11",
      "openingHours": "12pm – 8pm"
    },
    {
      "name": "NanXing Claypot Rice (#01-11)",
      "unit": null,
      "openingHours": "12pm – 8pm"
    },
    {
      "name": "Circuit Road Hawker Centre",
      "unit": null,
      "openingHours": null
    },
    {
      "name": "Playlist",
      "unit": null,
      "openingHours": null
    },
    {
      "name": "Newest",
      "unit": null,
      "openingHours": null
    },
    {
      "name": "Jjjajangmyeon Showdown: O.BBa Jjajang vs Shin Jjajang Budae Jjigae",
      "unit": null,
      "openingHours": null
    },
    {
      "name": "Award-winning Thai street food brand Mr. Tuk Tuk to open 1st Johor Bahru outlet",
      "unit": null,
      "openingHours": null
    },
    {
      "name": "We tried Singapore’s best-rated Hainanese curry rice",
      "unit": null,
      "openingHours": null
    },
    {
      "name": "More To Read",
      "unit": null,
      "openingHours": null
    },
    {
      "name": "Jjjajangmyeon Showdown: O.BBa Jjajang vs Shin Jjajang Budae Jjigae",
      "unit": null,
      "openingHours": null
    },
    {
      "name": "Award-winning Thai street food brand Mr. Tuk Tuk to open 1st Johor Bahru outlet",
      "unit": null,
      "openingHours": null
    },
    {
      "name": "We tried Singapore’s best-rated Hainanese curry rice",
      "unit": null,
      "openingHours": null
    },
    {
      "name": "10 best makan spots at Lot 10 Hutong Food Court, Bukit Bintang",
      "unit": null,
      "openingHours": null
    },
    {
      "name": "Top 300 Hawkers",
      "unit": null,
      "openingHours": null
    },
    {
      "name": "More To See",
      "unit": null,
      "openingHours": null
    },
    {
      "name": "Company",
      "unit": null,
      "openingHours": null
    },
    {
      "name": "Resources",
      "unit": null,
      "openingHours": null
    }
  ],
  "Punggol Coast Hawker Centre": [
    {
      "name": "Enjoy Eating House & Bar, Stevens: Rediscovering Singapore Flavours",
      "unit": null,
      "openingHours": null
    },
    {
      "name": "Enjoy Eating House & Bar, Stevens: Rediscovering Singapore Flavours",
      "unit": null,
      "openingHours": null
    },
    {
      "name": "You Fu Ban Mian & Pao Fan (#02-K61)",
      "unit": null,
      "openingHours": null
    },
    {
      "name": "Kedai Salima (#02-K80)",
      "unit": null,
      "openingHours": "6am – 5pm"
    },
    {
      "name": "What The Puff! (#02-K76)",
      "unit": null,
      "openingHours": null
    },
    {
      "name": "Huay Kwang (#02-K51)",
      "unit": null,
      "openingHours": null
    },
    {
      "name": "Hakka Leipopo (#02-K65)",
      "unit": null,
      "openingHours": "10am – 8pm"
    },
    {
      "name": "One Soy 一豆 (#02-K88)",
      "unit": null,
      "openingHours": null
    },
    {
      "name": "Xiang Chi Mian Traditional Bak Chor Mee 想吃面传统肉胜面 (#02-K55)",
      "unit": null,
      "openingHours": "7am – 9pm"
    },
    {
      "name": "Jade’s Chicken (#02-K78)",
      "unit": null,
      "openingHours": "11am – 9pm"
    },
    {
      "name": "S.J Sickander Ammal Muslim Foods (#02-K52)",
      "unit": null,
      "openingHours": "6am – 10pm"
    },
    {
      "name": "Hock Hai (Hong Lim) Curry Chicken Noodle (#02-K64)",
      "unit": null,
      "openingHours": null
    },
    {
      "name": "Punggol Coast Hawker Centre",
      "unit": null,
      "openingHours": null
    },
    {
      "name": "Playlist",
      "unit": null,
      "openingHours": null
    },
    {
      "name": "Newest",
      "unit": null,
      "openingHours": null
    },
    {
      "name": "Jjjajangmyeon Showdown: O.BBa Jjajang vs Shin Jjajang Budae Jjigae",
      "unit": null,
      "openingHours": null
    },
    {
      "name": "Award-winning Thai street food brand Mr. Tuk Tuk to open 1st Johor Bahru outlet",
      "unit": null,
      "openingHours": null
    },
    {
      "name": "We tried Singapore’s best-rated Hainanese curry rice",
      "unit": null,
      "openingHours": null
    },
    {
      "name": "More To Read",
      "unit": null,
      "openingHours": null
    },
    {
      "name": "Jjjajangmyeon Showdown: O.BBa Jjajang vs Shin Jjajang Budae Jjigae",
      "unit": null,
      "openingHours": null
    },
    {
      "name": "Award-winning Thai street food brand Mr. Tuk Tuk to open 1st Johor Bahru outlet",
      "unit": null,
      "openingHours": null
    },
    {
      "name": "We tried Singapore’s best-rated Hainanese curry rice",
      "unit": null,
      "openingHours": null
    },
    {
      "name": "10 best makan spots at Lot 10 Hutong Food Court, Bukit Bintang",
      "unit": null,
      "openingHours": null
    },
    {
      "name": "Top 300 Hawkers",
      "unit": null,
      "openingHours": null
    },
    {
      "name": "More To See",
      "unit": null,
      "openingHours": null
    },
    {
      "name": "Company",
      "unit": null,
      "openingHours": null
    },
    {
      "name": "Resources",
      "unit": null,
      "openingHours": null
    }
  ]
}